{"py/object": "PotHoleModels.DataStore", "potHoles": {"1": {"py/object": "PotHoleModels.PotHole", "district": "d13", "streetAddress": "123 Elm Street", "size": "6", "location": "curb", "priority": 5, "ID": 1}, "2": {"py/object": "PotHoleModels.PotHole", "district": "Santa Clara", "streetAddress": "9009 South Wiggins Road", "size": "6", "location": "left side", "priority": 5, "ID": 2}, "3": {"py/object": "PotHoleModels.PotHole", "district": "D13", "streetAddress": "67509 East Road", "size": "9", "location": "side", "priority": 5, "ID": 3}, "4": {"py/object": "PotHoleModels.PotHole", "district": "West Side D5", "streetAddress": "56 Wynoma Court", "size": "2", "location": "curb", "priority": 5, "ID": 4}}, "workOrders": {"1": {"py/object": "PotHoleModels.WorkOrder", "potHoleID": "1", "hoursApplied": "6", "repairCrewID": "2", "equipmentAssigned": "backhoe\r\nshovels\r\npick axe", "fillerMaterial": "claymix", "holeStatus": "inprogress", "numberOfWorkers": "2", "ID": 1}, "2": {"py/object": "PotHoleModels.WorkOrder", "potHoleID": "2", "hoursApplied": "12", "repairCrewID": "6", "equipmentAssigned": "backhoe\r\nfront loader\r\nmixer", "fillerMaterial": "concrete", "holeStatus": "not started", "numberOfWorkers": "6", "ID": 2}}, "damageClaims": {"1": {"py/object": "PotHoleModels.DamageClaim", "potHoleID": "1", "name": "Kenneth Ceglia", "address": "10177 East Road", "phone": "775-998-6432", "damageType": "Auto - frame", "dollarAmount": "300.00", "approved": "Not Approved", "ID": 1}, "2": {"py/object": "PotHoleModels.DamageClaim", "potHoleID": "2", "name": "George Pappageorgia", "address": "12211 F Street", "phone": "998-937-3678", "damageType": "Auto - tire rupture", "dollarAmount": "156.75", "approved": "Approved", "ID": 2}, "3": {"py/object": "PotHoleModels.DamageClaim", "potHoleID": "1", "name": "George Pappageorgia", "address": "10177 East Road", "phone": "555-443-5476", "damageType": "Auto - tire rupture", "dollarAmount": "156.75", "approved": "Not Approved", "ID": 3}, "4": {"py/object": "PotHoleModels.DamageClaim", "potHoleID": "1", "name": "George Pappageorgia", "address": "10177 East Road", "phone": "555-340-4908", "damageType": "Auto - frame", "dollarAmount": "300.00", "approved": "Not Approved", "ID": 4}}, "nextPotHoleID": 4, "nextWorkOrderID": 2, "nextdamageClaimID": 4}